City_ID,City,Lat,Lng,Max Temp,Humidity,Cloudiness,Wind Speed,Country,Date
0,east london,-33.0153,27.9116,56.34,94,100,11.5,ZA,1698515706
1,yellowknife,62.456,-114.3525,33.42,94,40,13.8,CA,1698515599
2,nova sintra,14.8667,-24.7167,75.54,76,43,15.57,CV,1698515707
3,port-aux-francais,-49.35,70.2167,41.25,98,100,18.34,TF,1698515707
4,caaguazu,-25.45,-56.0167,77.43,90,99,6.85,PY,1698515707
5,sabha,27.0377,14.4283,79.95,18,42,5.66,LY,1698515707
6,laojunmiao,39.8333,97.7333,43.75,35,64,0.31,CN,1698515707
7,ushuaia,-54.8,-68.3,44.26,45,0,11.5,AR,1698515707
8,waitangi,-43.9535,-176.5597,48.81,85,38,8.01,NZ,1698515708
9,blackmans bay,-43.0167,147.3167,49.73,75,66,3.0,AU,1698515708
10,grytviken,-54.2811,-36.5092,30.96,97,100,3.67,GS,1698515708
11,san vicente de canete,-13.0751,-76.3835,70.47,76,68,9.82,PE,1698515708
12,praia da vitoria,38.7333,-27.0667,66.45,59,20,20.02,PT,1698515708
13,badger,64.8,-147.5333,13.35,83,20,0.0,US,1698515708
14,saint-francois,46.4154,3.9054,60.66,64,0,10.36,FR,1698515708
15,adamstown,-25.066,-130.1015,72.77,81,94,12.93,PN,1698515708
16,susuman,62.7833,148.1667,0.99,99,95,1.01,RU,1698515709
17,san antonio de pale,-1.4014,5.6325,79.38,78,10,8.48,GQ,1698515709
18,haiku-pauwela,20.9219,-156.3051,75.04,81,40,8.05,US,1698515709
19,tromso,69.6496,18.957,28.42,74,0,3.44,NO,1698515709
20,porto franco,-6.3383,-47.3992,100.92,26,48,8.61,BR,1698515709
21,zheshart,62.0731,49.5733,23.59,84,97,9.15,RU,1698515709
22,afaahiti,-17.75,-149.2833,78.67,78,100,5.12,PF,1698515709
23,anadyr,64.75,177.4833,34.3,100,100,11.18,RU,1698515709
24,edinburgh of the seven seas,-37.0676,-12.3116,57.51,91,100,17.96,SH,1698515709
25,pont rouge,48.8833,-72.0825,44.89,64,89,15.55,CA,1698515710
26,stanley,54.868,-1.6985,48.22,95,75,9.22,GB,1698515710
27,kone,-21.0595,164.8658,68.61,87,51,6.93,NC,1698515710
28,gonzaga,44.9498,10.8209,64.69,67,63,5.26,IT,1698515710
29,missoula,47.0166,-113.8009,12.6,52,31,2.35,US,1698515710
30,newman,37.3138,-121.0208,61.03,35,38,11.01,US,1698515710
31,alesund,62.4723,6.1549,40.75,72,0,10.36,NO,1698515710
32,newport,51.5877,-2.9984,54.45,91,94,9.4,GB,1698515710
33,linxia chengguanzhen,35.6003,103.2064,48.88,44,3,2.8,CN,1698515711
34,okulovka,58.4008,33.2908,32.56,99,100,1.23,RU,1698515711
35,juneau,58.3019,-134.4197,37.09,97,75,0.0,US,1698515705
36,margaret river,-33.95,115.0667,58.35,80,93,12.84,AU,1698515663
37,wailua homesteads,22.0669,-159.378,75.63,80,0,9.22,US,1698515711
38,atasu,48.6814,71.6433,38.25,92,100,9.31,KZ,1698515711
39,vredendal,-31.6683,18.5012,66.61,35,0,9.08,ZA,1698515712
40,invercargill,-46.4,168.35,40.01,94,50,3.0,NZ,1698515712
41,hawaiian paradise park,19.5933,-154.9731,76.89,82,40,5.75,US,1698515712
42,flying fish cove,-10.4217,105.6791,78.48,83,75,9.22,CX,1698515712
43,petropavlovsk-kamchatsky,53.0452,158.6483,37.45,59,0,8.95,RU,1698515712
44,fort bragg,35.139,-79.006,84.81,50,0,5.01,US,1698515713
45,tiksi,71.6872,128.8694,12.02,91,100,6.76,RU,1698515713
46,tan-tan,28.438,-11.1032,73.35,68,40,18.41,MA,1698515713
47,talnakh,69.4865,88.3972,4.21,92,77,1.81,RU,1698515713
48,port mathurin,-19.6833,63.4167,76.24,79,6,8.48,MU,1698515713
49,larkird,35.4894,66.6641,58.98,56,68,2.01,AF,1698515713
50,ocean city,39.2776,-74.5746,82.18,59,0,5.01,US,1698515677
51,lompoc,34.6391,-120.4579,71.02,66,0,12.66,US,1698515640
52,hadibu,12.65,54.0333,79.16,77,88,8.14,YE,1698515714
53,iqaluit,63.7506,-68.5145,13.73,78,20,9.22,CA,1698515714
54,longyearbyen,78.2186,15.6401,24.64,93,75,8.05,SJ,1698515714
55,olonkinbyen,70.9221,-8.7187,30.43,74,98,7.02,SJ,1698515714
56,bethel,41.3712,-73.414,81.63,59,0,11.5,US,1698515508
57,sandnessjoen,66.0217,12.6316,28.92,96,85,11.3,NO,1698515714
58,puerto ayora,-0.7393,-90.3518,82.36,85,99,11.99,EC,1698515714
59,lebu,-37.6167,-73.65,53.33,88,100,22.01,CL,1698515715
60,la passe,45.5549,-0.8967,64.63,67,100,24.92,FR,1698515715
61,carnarvon,-24.8667,113.6333,67.62,69,4,23.8,AU,1698515715
62,queenstown,-31.8976,26.8753,48.27,76,100,8.88,ZA,1698515715
63,chonchi,-42.6128,-73.8092,49.21,76,71,14.45,CL,1698515715
64,bredasdorp,-34.5322,20.0403,56.35,56,85,12.53,ZA,1698515715
65,salmon arm,50.6998,-119.3024,33.31,70,1,1.14,CA,1698515715
66,georgetown,5.4112,100.3354,80.94,97,20,5.01,MY,1698515716
67,prince rupert,54.3161,-130.3201,42.49,81,0,2.3,CA,1698515716
68,bubaque,11.2833,-15.8333,82.06,76,57,8.97,GW,1698515716
69,kittila,67.6647,24.8936,23.14,93,100,3.44,FI,1698515716
70,arkalyk,50.2486,66.9114,39.83,96,100,12.21,KZ,1698515716
71,tougan,13.0667,-3.0667,90.75,23,89,7.29,BF,1698515717
72,kilju,40.9642,129.3278,41.31,64,6,3.8,KP,1698515717
73,crane,31.3974,-102.3501,74.05,71,95,20.49,US,1698515717
74,tofol,5.3248,163.0078,82.81,71,7,6.2,FM,1698515717
75,pocone,-16.2567,-56.6228,98.62,32,90,8.61,BR,1698515717
76,cascais,38.6979,-9.4215,68.95,83,20,18.99,PT,1698515717
77,richards bay,-28.783,32.0377,67.21,90,100,13.33,ZA,1698515718
78,papatowai,-46.5619,169.4708,40.86,90,34,5.88,NZ,1698515718
79,the pinery,39.4553,-104.7344,33.1,80,100,11.5,US,1698515441
80,dunedin,-45.8742,170.5036,46.8,72,52,3.96,NZ,1698515576
81,iglino,54.8324,56.4126,33.89,92,100,9.44,RU,1698515718
82,matane,48.8286,-67.522,51.8,78,86,22.1,CA,1698515633
83,kyzylorda,44.8528,65.5092,57.22,72,75,6.71,KZ,1698515718
84,northam,51.0333,-4.2167,53.65,90,79,10.92,GB,1698515718
85,sisimiut,66.9395,-53.6735,24.44,81,89,11.54,GL,1698515719
86,adrar,20.5022,-10.0711,90.23,10,0,4.5,MR,1698515719
87,kaa-khem,51.6833,94.7333,25.41,39,3,4.41,RU,1698515719
88,ta`u,-14.2336,-169.5144,79.41,85,54,17.0,AS,1698515719
89,fada,9.5667,8.3,76.1,64,34,2.15,NG,1698515719
90,hithadhoo,-0.6,73.0833,80.87,83,67,19.01,MV,1698515719
91,cabo san lucas,22.8909,-109.9124,83.61,66,0,5.91,MX,1698515635
92,kachug,53.9606,105.8817,24.04,66,4,3.0,RU,1698515720
93,ghat,24.9647,10.1728,86.22,16,21,4.99,LY,1698515720
94,dryden,49.7833,-92.7503,28.69,86,100,10.36,CA,1698515530
95,geraldton,-28.7667,114.6,59.41,77,1,14.97,AU,1698515720
96,tura,25.5198,90.2201,66.7,78,0,3.76,IN,1698515720
97,wanning,18.8003,110.3967,77.81,90,75,4.54,CN,1698515720
98,port lincoln,-34.7333,135.8667,49.62,77,22,2.08,AU,1698515721
99,jose maria morelos,23.3952,-103.8984,70.34,58,25,5.91,MX,1698515721
100,puerto natales,-51.7236,-72.4875,41.45,70,75,5.75,CL,1698515721
101,thompson,55.7435,-97.8558,24.96,100,100,5.75,CA,1698515721
102,bilibino,68.0546,166.4372,-7.89,98,58,2.01,RU,1698515721
103,ciudad lazaro cardenas,17.9583,-102.2,85.1,67,98,2.64,MX,1698515721
104,pemangkat,1.1667,108.9667,77.59,87,100,5.57,ID,1698515721
105,isafjordur,66.0755,-23.124,37.44,81,20,3.44,IS,1698515721
106,bandon,51.7469,-8.7425,51.39,91,100,7.05,IE,1698515722
107,ceres,37.5949,-120.9577,61.02,60,0,14.97,US,1698515722
108,nelson bay,-32.7167,152.15,57.0,92,70,5.01,AU,1698515722
109,college,64.8569,-147.8028,13.44,83,75,0.0,US,1698515722
110,bodaybo,57.8506,114.1933,23.85,63,100,7.58,RU,1698515722
111,west island,-12.1568,96.8225,78.78,73,100,20.71,CC,1698515722
112,port alfred,-33.5906,26.891,54.18,94,88,5.01,ZA,1698515722
113,kiunga,-6.1219,141.2906,73.45,97,100,0.92,PG,1698515723
114,berezovyy,51.6667,135.7,30.02,60,51,1.39,RU,1698515723
115,vila franca do campo,37.7167,-25.4333,66.88,99,93,11.97,PT,1698515574
116,blagoveshchenka,52.8333,79.8667,29.14,58,97,7.54,RU,1698515723
117,le port,-20.9373,55.2919,77.0,97,23,2.66,RE,1698515723
118,lazaro cardenas,17.9583,-102.2,85.1,67,98,2.64,MX,1698515721
119,taoudenni,22.6783,-3.9836,95.16,10,0,6.67,ML,1698515723
120,inyonga,-6.7167,32.0667,77.27,39,79,2.93,TZ,1698515723
121,mount pearl,47.5166,-52.7813,57.72,98,100,14.97,CA,1698515724
122,tolanaro,-25.0319,46.9987,77.07,78,40,21.85,MG,1698515724
123,margate,51.3813,1.3862,55.69,85,84,10.0,GB,1698515724
124,sidareja,-7.4846,108.7923,74.91,93,34,0.76,ID,1698515724
125,timmins,48.4669,-81.3331,31.82,59,75,12.66,CA,1698515724
126,bundaberg north,-24.8551,152.3425,57.22,93,0,1.99,AU,1698515724
127,dongola,19.1667,30.4833,89.28,18,11,10.51,SD,1698515724
128,qaqortoq,60.7167,-46.0333,33.44,77,20,1.63,GL,1698515724
129,albany,42.6001,-73.9662,73.94,86,49,11.83,US,1698515282
130,an muileann gcearr,53.5333,-7.35,50.68,95,91,7.99,IE,1698515712
131,saldanha,-33.0117,17.9442,60.85,62,0,26.53,ZA,1698515725
132,amungan,15.3652,119.9582,79.21,80,67,5.64,PH,1698515725
133,ati,13.2154,18.3353,93.02,16,7,7.14,TD,1698515725
134,whangarei,-35.7317,174.3239,54.68,77,100,15.75,NZ,1698515725
135,saipan,15.1355,145.701,81.3,94,75,4.61,MP,1698515725
136,castillos,-34.1667,-53.8333,73.54,65,43,6.26,UY,1698515725
137,brisas barra de suchiate,14.55,-92.2167,89.78,77,19,10.27,MX,1698515725
138,whitehorse,60.7161,-135.0538,20.17,93,100,10.36,CA,1698515725
139,fasa,28.9383,53.6482,65.44,42,0,0.0,IR,1698515726
140,colares,38.7992,-9.4469,68.77,83,20,18.99,PT,1698515726
141,nadym,65.5333,72.5167,14.31,96,58,8.52,RU,1698515726
142,quellon,-43.1167,-73.6167,48.15,74,57,23.29,CL,1698515726
143,sao simao,-21.4792,-47.5508,73.85,50,98,6.98,BR,1698515522
144,zheleznodorozhnyy,55.7503,38.0042,32.61,96,100,10.0,RU,1698515726
145,puerto lempira,15.2667,-83.7667,87.94,66,40,9.22,HN,1698515726
146,balabac,7.9868,117.0645,81.57,81,47,7.65,PH,1698515726
147,campbell river,50.0163,-125.2446,37.6,100,20,0.0,CA,1698515726
148,kavieng,-2.5744,150.7967,81.79,81,8,15.39,PG,1698515727
149,akureyri,65.6835,-18.0878,35.53,75,0,0.0,IS,1698515727
150,constantia,44.1833,28.65,63.7,48,65,4.81,RO,1698515494
151,santiago de tolu,9.5239,-75.5814,78.64,88,100,9.37,CO,1698515727
152,khorramabad,33.4878,48.3558,58.62,41,0,6.91,IR,1698515727
153,fort mcmurray,56.7268,-111.381,26.11,86,100,8.05,CA,1698515727
154,tossa de mar,41.7325,2.9338,67.41,77,24,16.11,ES,1698515727
155,shizuishan,39.2333,106.7694,57.29,24,3,8.57,CN,1698515727
156,punta arenas,-53.15,-70.9167,44.71,42,0,5.75,CL,1698515529
157,vetluzhskiy,58.3902,45.4654,27.03,73,100,3.0,RU,1698515728
158,labrador city,52.9463,-66.9114,39.11,75,75,24.16,CA,1698515728
159,klyuchi,52.2667,79.1667,28.49,55,100,7.92,RU,1698515728
160,smithers,54.7804,-127.1743,17.92,93,0,3.44,CA,1698515728
161,esquel,-42.9,-71.3167,39.88,79,100,19.77,AR,1698515728
162,basmat,19.3167,77.1667,69.39,48,0,5.61,IN,1698515728
163,isabela,6.7085,121.9711,78.06,83,52,1.9,PH,1698515728
164,uray,60.1247,64.7758,20.97,69,11,6.04,RU,1698515728
165,conchas,-23.0153,-48.0106,85.39,57,99,10.92,BR,1698515729
166,ribeira grande,38.5167,-28.7,65.77,63,40,14.97,PT,1698515729
167,chos malal,-37.3781,-70.2709,51.76,51,79,30.94,AR,1698515729
168,nova vicosa,-17.8919,-39.3719,82.63,66,71,14.9,BR,1698515704
169,tobelo,1.7284,128.0095,79.65,81,99,3.47,ID,1698515729
170,hamilton,39.1834,-84.5333,60.91,93,100,8.05,US,1698515729
171,vadso,70.0744,29.7487,30.36,80,100,10.36,NO,1698515729
172,tadif,36.3481,37.5309,75.72,34,3,5.79,SY,1698515729
173,enewetak,11.3474,162.3373,82.31,76,48,7.92,MH,1698515729
174,malpica,43.3228,-8.8105,62.76,75,99,19.69,ES,1698515729
175,nuuk,64.1835,-51.7216,27.21,74,0,8.05,GL,1698515730
176,sungai penuh,-2.0833,101.3833,63.82,86,37,3.36,ID,1698515730
177,kodiak,57.79,-152.4072,45.91,93,100,8.05,US,1698515730
178,kruisfontein,-34.0033,24.7314,53.47,67,99,15.35,ZA,1698515730
179,tulagi,-9.0996,160.1476,81.54,77,89,14.34,SB,1698515730
180,arkhangel'sk,64.5401,40.5433,24.13,81,100,7.96,RU,1698515730
181,al ghayzah,16.2079,52.176,79.2,69,52,6.4,YE,1698515730
182,san julian,21.0167,-102.1667,72.75,43,44,7.9,MX,1698515731
183,auki,-8.7676,160.7034,76.8,90,81,3.53,SB,1698515731
184,loudun,47.0079,0.083,59.18,81,100,23.85,FR,1698515731
185,vorgashor,67.5833,63.95,6.12,99,98,3.06,RU,1698515731
186,saint-joseph,-21.3667,55.6167,75.58,85,26,8.21,RE,1698515731
187,fort-shevchenko,44.5086,50.263,61.66,70,100,14.16,KZ,1698515731
188,liman,48.9884,37.8023,55.53,61,54,27.65,UA,1698515731
189,jamiltepec,16.2833,-97.8167,85.62,53,100,3.67,MX,1698515732
190,minas de marcona,-15.2119,-75.1103,66.58,66,84,12.82,PE,1698515732
191,ola,59.5833,151.2833,28.33,70,92,6.67,RU,1698515732
192,mount isa,-20.7333,139.5,73.17,12,32,3.44,AU,1698515732
193,happy valley-goose bay,53.3168,-60.3315,35.91,93,100,4.61,CA,1698515732
194,essaouira,31.5125,-9.77,72.9,60,40,11.5,MA,1698515732
195,tadine,-21.55,167.8833,71.1,86,1,11.48,NC,1698515732
196,gadzhiyevo,69.2551,33.3362,23.36,89,100,3.96,RU,1698515733
197,rikaze,29.25,88.8833,40.26,21,31,2.46,CN,1698515733
198,sudak,44.85,34.9667,61.77,68,66,4.63,UA,1698515733
199,andergrove,-21.0833,149.1833,67.64,70,19,14.14,AU,1698515733
200,murun-kuren,49.6342,100.1625,24.37,45,9,1.99,MN,1698515733
201,vilyuysk,63.7553,121.6247,22.21,91,100,4.54,RU,1698515733
202,vila velha,-20.3297,-40.2925,84.15,74,20,16.11,BR,1698515733
203,utrik,11.2278,169.8474,82.96,76,89,17.69,MH,1698515733
204,ilulissat,69.2167,-51.1,24.82,80,75,9.22,GL,1698515734
205,hermanus,-34.4187,19.2345,56.77,68,53,17.07,ZA,1698515694
206,tralee,52.2704,-9.7026,50.18,89,90,4.81,IE,1698515734
207,horta,38.5333,-28.6333,65.01,68,40,14.97,PT,1698515734
208,anna regina,7.2644,-58.5077,87.48,60,87,6.6,GY,1698515734
209,mzuzu,-11.4656,34.0207,70.5,50,40,1.83,MW,1698515734
210,sitka,57.0531,-135.33,42.69,81,100,8.05,US,1698515735
211,codrington,-38.2667,141.9667,40.71,92,90,6.98,AU,1698515735
212,ust-nera,64.5667,143.2,-0.06,99,98,2.93,RU,1698515735
213,khandyga,62.6667,135.6,5.31,93,95,3.4,RU,1698515735
214,port elizabeth,-33.918,25.5701,57.49,88,100,10.36,ZA,1698515481
215,chachapoyas,-6.2317,-77.869,64.29,80,100,4.43,PE,1698515735
216,mantua,45.1667,10.7833,61.05,74,56,3.0,IT,1698515735
217,boca do acre,-8.7522,-67.3978,98.28,34,91,5.93,BR,1698515735
218,vryburg,-26.9566,24.7284,75.13,12,2,13.51,ZA,1698515736
219,eyl,7.9803,49.8164,80.78,75,96,16.4,SO,1698515736
220,kapa'a,22.0752,-159.319,76.98,80,0,9.22,US,1698515736
221,karratha,-20.7377,116.8463,80.65,72,37,9.37,AU,1698515736
222,selfoss,63.9331,-20.9971,40.05,70,99,7.0,IS,1698515736
223,chibougamau,49.9168,-74.3659,31.62,93,75,11.5,CA,1698515737
224,santa pola,38.1917,-0.5658,70.32,73,0,10.0,ES,1698515737
225,uturoa,-16.7333,-151.4333,78.8,79,96,12.73,PF,1698515737
226,astara,38.5,48.6667,67.98,35,40,7.67,AZ,1698515737
227,st. john's,47.5649,-52.7093,58.55,99,100,14.97,CA,1698515737
228,jikamshi,12.1733,7.7742,82.44,19,8,7.23,NG,1698515737
229,koundara,12.4833,-13.3,87.04,60,23,1.9,GN,1698515737
230,kayangel,8.0823,134.7173,81.43,75,98,2.08,PW,1698515738
231,boyolangu,-8.1181,111.8935,73.6,89,46,2.13,ID,1698515738
232,belmonte,-15.8631,-38.8828,82.4,68,33,13.35,BR,1698515738
233,bontang,0.1333,117.5,80.37,79,97,4.99,ID,1698515738
234,mancio lima,-7.6142,-72.8958,86.07,74,75,2.3,BR,1698515738
235,calca,-13.3333,-71.95,61.95,58,92,6.51,PE,1698515738
236,vanino,49.0869,140.2543,32.92,56,2,4.18,RU,1698515738
237,olyokminsk,60.3736,120.4264,27.93,75,100,5.01,RU,1698515739
238,bogdanovich,56.7803,62.0494,25.02,89,100,8.72,RU,1698515739
239,salinopolis,-0.6136,-47.3561,85.55,70,10,16.37,BR,1698515739
240,lihue,21.9789,-159.3672,76.24,79,0,9.22,US,1698515739
241,kerikeri,-35.2268,173.9474,54.91,90,100,3.0,NZ,1698515739
242,umm ruwaba,12.9061,31.2158,82.4,58,88,9.82,SD,1698515739
243,chifeng,42.2683,118.9636,51.01,42,6,5.93,CN,1698515740
244,luanda,-8.8368,13.2343,80.6,78,40,13.8,AO,1698515740
245,la ronge,55.1001,-105.2842,23.25,80,75,6.91,CA,1698515740
246,tranas,58.0372,14.9782,31.39,93,100,3.49,SE,1698515740
247,nar'yan-mar,67.6713,53.087,10.11,90,89,8.01,RU,1698515740
248,edeia,-17.3383,-49.9314,93.96,31,93,12.21,BR,1698515732
249,barcelos,41.5388,-8.6151,66.34,90,100,20.62,PT,1698515740
250,naze,28.3667,129.4833,65.32,64,3,11.27,JP,1698515740
251,lionel town,17.8101,-77.2406,87.69,55,17,7.05,JM,1698515740
252,afif,23.9065,42.9172,73.76,28,8,9.86,SA,1698515741
253,orchard homes,46.8633,-114.0484,28.27,79,100,0.0,US,1698515741
254,aasiaat,68.7098,-52.8699,17.53,93,79,11.14,GL,1698515741
255,australind,-33.2667,115.7167,50.77,87,71,2.86,AU,1698515741
256,urangan,-25.3,152.9,68.04,61,2,17.02,AU,1698515741
257,corner brook,48.9667,-57.9484,51.96,95,100,7.27,CA,1698515741
258,jayapura,-2.5333,140.7,83.59,91,63,3.31,ID,1698515741
259,pacocha,-17.5833,-71.3333,71.74,60,0,6.91,PE,1698515741
260,santa luzia,-19.7697,-43.8514,85.28,63,75,8.05,BR,1698515741
261,watford city,47.8022,-103.2832,18.16,79,100,16.11,US,1698515742
262,mokhotlong,-29.2894,29.0675,49.98,87,56,10.58,LS,1698515742
263,tomatlan,19.9333,-105.25,87.49,64,26,3.27,MX,1698515742
264,bako,5.7833,36.5667,63.72,96,78,1.81,ET,1698515742
265,hailin,44.5833,129.4167,33.13,51,45,1.66,CN,1698515742
266,bardai,11.65,7.2333,78.48,26,9,1.86,NG,1698515742
267,kuta,-8.7233,115.1723,78.75,94,40,2.3,ID,1698515742
268,severnoye,56.3491,78.3619,20.98,87,13,4.0,RU,1698515742
269,nazarabad,35.9521,50.6075,63.41,25,4,1.5,IR,1698515742
270,jamestown,42.097,-79.2353,57.02,84,100,10.36,US,1698515576
271,tyukhtet,56.5389,89.3011,24.03,83,99,8.86,RU,1698515743
272,sinop,41.7711,34.8709,60.76,69,66,1.66,TR,1698515743
273,macedo de cavaleiros,41.5382,-6.9611,57.38,81,90,18.12,PT,1698515743
274,taulaga,-11.0553,-171.0883,82.26,77,34,9.55,AS,1698515743
275,tagta,41.6504,59.9164,60.75,67,0,6.91,TM,1698515743
276,belogorsk,50.9158,128.4611,32.52,61,6,8.97,RU,1698515743
277,karlskrona,56.1616,15.5866,37.85,72,100,9.42,SE,1698515728
278,curup,-3.4667,102.5333,71.64,81,92,2.68,ID,1698515743
279,reggane,26.7158,0.1714,89.6,15,56,2.89,DZ,1698515743
280,dumai,1.6833,101.45,74.3,96,98,1.32,ID,1698515744
281,tazovsky,67.4667,78.7,6.91,91,93,11.12,RU,1698515744
282,tosontsengel,48.7567,98.2839,22.55,62,11,1.43,MN,1698515744
283,dokkum,53.3222,5.997,54.0,87,100,9.22,NL,1698515744
284,lubuklinggau,-3.3,102.8667,77.81,76,95,1.03,ID,1698515744
285,banda aceh,5.5577,95.3222,79.66,82,97,1.21,ID,1698515744
286,quinte west,44.1834,-77.5662,60.93,51,20,12.66,CA,1698515744
287,burao,9.5221,45.5336,74.5,67,100,11.16,SO,1698515744
288,atafu village,-8.5421,-172.5159,83.17,74,38,9.42,TK,1698515745
289,charters towers,-20.1,146.2667,64.09,81,79,8.21,AU,1698515745
290,la'ie,21.6477,-157.9253,80.06,87,26,5.3,US,1698515745
291,luchegorsk,46.4764,134.2569,32.11,54,9,2.1,RU,1698515745
292,hulan,45.9833,126.6,37.51,39,91,6.82,CN,1698515745
293,gupitan,7.7758,125.6406,74.35,96,45,1.43,PH,1698515745
294,la foa,-21.7108,165.8276,69.76,81,59,10.69,NC,1698515745
295,pacasmayo,-7.4006,-79.5714,70.18,76,99,12.66,PE,1698515745
296,tanggu,39.0211,117.6469,57.16,69,42,2.84,CN,1698515746
297,lorengau,-2.0226,147.2712,81.36,80,77,8.12,PG,1698515746
298,san luis de la loma,17.2706,-100.8939,85.19,70,98,6.06,MX,1698515746
299,vorkuta,67.5,64.0,6.01,99,97,3.67,RU,1698515746
300,salekhard,66.53,66.6019,10.58,90,73,2.37,RU,1698515746
301,polyarnyy,69.1989,33.4478,23.77,88,100,3.69,RU,1698515543
302,udachny,66.4167,112.4,10.45,84,71,8.28,RU,1698515746
303,trevelin,-43.0858,-71.4639,36.88,85,100,11.59,AR,1698515746
304,jincheng,35.5022,112.8328,60.93,44,0,1.21,CN,1698515746
305,princeville,45.7668,-61.2985,73.62,71,75,12.66,CA,1698515747
306,kerouane,9.2667,-9.0167,77.34,76,80,3.22,GN,1698515747
307,ribadesella,43.4614,-5.0596,65.95,64,99,8.75,ES,1698515747
308,zhumysker,49.3333,49.4,61.07,76,100,20.69,KZ,1698515747
309,arraial do cabo,-22.9661,-42.0278,80.56,83,75,19.57,BR,1698515747
310,kill devil hills,36.0307,-75.676,78.82,60,0,6.91,US,1698515634
311,carutapera,-1.195,-46.02,88.7,59,16,13.22,BR,1698515747
312,saynshand,44.8824,110.1163,46.54,34,46,8.16,MN,1698515747
313,nagqu,31.5,92.0,22.91,57,63,3.04,CN,1698515747
314,businga,3.3333,20.8833,75.04,88,95,1.57,CD,1698515748
315,mahibadhoo,3.7833,72.9667,82.36,77,80,8.66,MV,1698515748
316,berdigestyakh,62.0989,126.6992,27.19,98,100,2.1,RU,1698515748
317,fort st. john,56.2499,-120.8529,21.09,79,40,4.61,CA,1698515524
318,ghansor,22.65,79.95,64.13,53,3,2.3,IN,1698515748
319,naracoorte,-36.9579,140.7383,37.69,91,80,2.39,AU,1698515748
320,kingston,17.997,-76.7936,87.24,67,40,9.22,JM,1698515576
321,bagli,22.65,76.35,68.14,42,65,2.86,IN,1698515749
322,punto fijo,11.6956,-70.1996,83.7,70,87,7.96,VE,1698515749
323,cockburn town,21.4612,-71.1419,82.58,74,15,15.48,TC,1698515749
324,el calafate,-50.3408,-72.2768,43.52,63,68,9.86,AR,1698515749
325,vylkove,45.4021,29.586,62.17,45,4,6.64,UA,1698515749
326,moree,-29.4667,149.85,54.72,61,0,7.58,AU,1698515749
327,padre paraiso,-17.0742,-41.4844,83.48,51,83,2.66,BR,1698515749
328,nuku'alofa,-21.1333,-175.2,71.94,83,75,13.8,TO,1698515692
329,hammerfest,70.6634,23.6821,32.45,80,100,4.61,NO,1698515749
330,dossor,47.5272,52.9811,59.4,85,100,11.21,KZ,1698515750
331,yeniseysk,58.4497,92.1703,26.94,70,99,14.0,RU,1698515750
332,nikolayevsk-on-amure,53.1406,140.73,28.15,83,63,4.83,RU,1698515750
333,zeya,53.75,127.2667,29.48,72,47,4.81,RU,1698515750
334,nemuro,43.3236,145.575,53.69,73,58,3.87,JP,1698515750
335,newnham,-41.3833,147.1333,43.32,93,21,8.05,AU,1698515654
336,kiama,-34.6833,150.8667,53.38,82,15,9.15,AU,1698515750
337,petauke,-14.2426,31.3253,78.37,43,79,3.53,ZM,1698515750
338,midelt,32.6852,-4.7451,62.71,47,65,10.54,MA,1698515750
339,rurrenabaque,-14.4413,-67.5278,94.96,42,96,11.05,BO,1698515751
340,sikasso,10.9167,-7.0,86.92,42,75,5.75,ML,1698515751
341,walvis bay,-22.9575,14.5053,65.35,63,5,8.05,NA,1698515751
342,avarua,-21.2078,-159.775,73.45,64,40,8.05,CK,1698515751
343,mandan,46.8267,-100.8896,25.38,76,0,18.41,US,1698515751
344,arfoud,31.4348,-4.2375,76.51,20,84,3.69,MA,1698515751
345,guerrero negro,27.9769,-114.0611,70.45,59,0,16.26,MX,1698515751
346,el fasher,13.6279,25.3494,88.09,16,86,11.45,SD,1698515751
347,mocimboa,-11.3167,40.35,78.1,84,7,9.19,MZ,1698515752
348,waddan,29.1614,16.139,79.16,20,69,6.51,LY,1698515752
349,saint-philippe,-21.3585,55.7679,76.59,84,43,6.8,RE,1698515752
350,santa marta de ortigueira,43.6833,-7.85,58.24,46,100,3.0,ES,1698515752
351,rio grande,-32.035,-52.0986,80.71,88,92,5.35,BR,1698515471
352,mariental,-24.6333,17.9667,75.81,14,0,13.78,NA,1698515752
353,dudinka,69.4058,86.1778,4.62,92,90,12.86,RU,1698515752
354,turabah,21.2141,41.6331,74.28,50,100,3.29,SA,1698515752
355,mayqayyng,51.4625,75.7986,33.28,47,100,14.58,KZ,1698515752
356,khirkiyan,22.1667,76.85,69.57,42,30,3.36,IN,1698515753
357,lesozavodsk,45.4794,133.4244,33.26,48,15,3.44,RU,1698515753
358,aykhal,66.0,111.5,1.09,99,89,9.33,RU,1698515753
359,sao joao da barra,-21.6403,-41.0511,82.49,87,100,14.76,BR,1698515542
360,kodinsk,58.6881,99.1844,26.44,63,100,10.74,RU,1698515753
361,alice springs,-23.7,133.8833,53.15,14,56,4.61,AU,1698515753
362,ocean shores,46.9737,-124.1563,46.02,74,0,5.01,US,1698515753
363,yakymivka,46.6897,35.1536,59.99,51,0,9.24,UA,1698515753
364,rasht,37.2808,49.5832,69.93,52,30,2.44,IR,1698515603
365,mertola,37.6592,-7.6643,65.55,72,26,10.58,PT,1698515754
366,hampton bays,40.869,-72.5176,78.94,74,0,5.75,US,1698515754
367,kavaratti,10.5669,72.642,83.71,69,76,1.34,IN,1698515754
368,kulhudhuffushi,6.6221,73.07,82.67,76,98,5.66,MV,1698515754
369,puerto deseado,-47.7503,-65.8938,59.85,41,79,31.61,AR,1698515754
370,siloam springs,36.1881,-94.5405,52.25,99,100,4.61,US,1698515617
371,yumaguzino,52.9041,56.3933,35.15,87,100,9.66,RU,1698515754
372,oranjemund,-28.55,16.4333,59.36,76,0,27.63,NA,1698515755
373,fale old settlement,-9.3852,-171.2468,83.16,74,24,10.58,TK,1698515755
374,vallenar,-28.5708,-70.7581,82.38,16,0,14.52,CL,1698515755
375,kutum,14.2,24.6667,81.86,19,39,8.61,SD,1698515755
376,gamba,-2.65,10.0,79.05,85,26,6.2,GA,1698515755
377,marica,-22.9194,-42.8186,85.95,72,100,13.33,BR,1698515755
378,vilyuchinsk,52.9306,158.4028,38.93,74,100,3.94,RU,1698515755
379,kasongo-lunda,-6.4667,16.8167,73.69,93,98,1.41,CD,1698515755
380,remire-montjoly,4.9167,-52.2667,93.24,59,20,14.97,GF,1698515755
381,ormara,25.2088,64.6357,80.98,73,2,9.33,PK,1698515756
382,santo antonio do sudoeste,-26.0736,-53.7253,68.88,98,100,6.82,BR,1698515756
383,brookings,44.3114,-96.7984,27.12,81,100,8.05,US,1698515756
384,brisas de zicatela,15.8369,-97.0419,86.31,66,98,6.89,MX,1698515756
385,nyurba,63.2842,118.3319,14.85,94,100,4.83,RU,1698515756
386,magistral'nyy,56.1725,107.4458,22.37,67,26,5.39,RU,1698515756
387,greenwood,34.1668,-82.1165,81.81,53,0,8.05,US,1698515756
388,bovril,-31.3431,-59.4451,85.91,49,0,8.14,AR,1698515756
389,kristiansund,63.1115,7.732,34.45,64,0,5.75,NO,1698515757
390,butterworth,5.3991,100.3638,81.05,97,20,5.01,MY,1698515757
391,rodolfo sanchez taboada,31.7167,-116.5667,66.09,72,20,1.99,MX,1698515757
392,leskovac,42.9981,21.9461,62.19,53,54,4.63,RS,1698515757
393,kapuskasing,49.4169,-82.4331,28.49,80,100,12.66,CA,1698515757
394,isola di capo rizzuto,38.96,17.0933,70.54,60,0,8.05,IT,1698515757
395,preobrazheniye,42.9019,133.9064,39.63,49,0,5.35,RU,1698515757
396,egilsstadir,65.2653,-14.3948,35.51,87,75,8.05,IS,1698515757
397,palmer,42.1584,-72.3287,80.65,53,20,9.22,US,1698515526
398,joshimath,30.5667,79.5667,55.04,56,37,4.36,IN,1698515758
399,adi keyh,14.8444,39.3772,60.24,74,94,5.28,ER,1698515758
400,keflavik,64.0049,-22.5624,40.91,75,0,4.61,IS,1698515758
401,wuchuan,21.4571,110.7659,76.14,87,99,9.04,CN,1698515758
402,cartagena del chaira,1.3349,-74.8429,94.12,44,98,4.29,CO,1698515758
403,weno,7.4515,151.8468,82.35,89,100,4.61,FM,1698515758
404,aden,12.7794,45.0367,83.28,76,57,17.67,YE,1698515758
405,montepuez,-13.1256,38.9997,78.69,62,77,11.18,MZ,1698515759
406,krasnoyarsk,56.0097,92.7917,26.65,70,71,9.66,RU,1698515759
407,lubang,13.8584,120.124,83.16,75,18,18.66,PH,1698515759
408,borogontsy,62.6683,131.1683,18.34,89,82,10.31,RU,1698515759
409,undurkhaan,47.3194,110.6556,39.76,61,38,15.39,MN,1698515759
410,greymouth,-42.4667,171.2,40.95,92,31,5.64,NZ,1698515759
411,lufilufi,-13.8745,-171.5986,74.98,86,94,19.3,WS,1698515759
412,terenozek,45.05,64.9833,56.95,53,82,4.56,KZ,1698515759
413,grand falls-windsor,48.9332,-55.6649,56.5,96,100,12.12,CA,1698515759
414,xuddur,4.1213,43.8894,77.0,77,90,14.12,SO,1698515759
415,chistyye bory,58.3647,41.6278,28.65,91,98,8.59,RU,1698515760
416,umm kaddadah,13.6017,26.6876,89.46,14,96,8.59,SD,1698515760
417,san fernando de monte cristi,19.8667,-71.65,83.07,70,25,9.28,DO,1698515760
418,n'zeto,-7.2312,12.8666,78.57,85,48,10.67,AO,1698515760
419,diourbel,14.6628,-16.3925,102.18,42,0,4.61,SN,1698515761
420,motygino,58.1831,94.7592,24.78,84,100,15.01,RU,1698515761
421,hasaki,35.7333,140.8333,52.2,62,12,15.08,JP,1698515761
422,cupar,56.3188,-3.012,51.8,86,40,13.8,GB,1698515761
423,ratnagiri,16.9833,73.3,78.37,63,1,5.55,IN,1698515761
424,salym,60.0625,71.4789,14.4,95,20,2.26,RU,1698515761
425,hlusk,52.903,28.6845,40.82,92,100,8.86,BY,1698515761
426,guatire,10.4762,-66.5427,81.59,85,98,2.44,VE,1698515762
427,talakan,50.3167,130.3667,31.1,64,8,3.6,RU,1698515762
428,tanout,14.9709,8.8879,88.43,11,64,6.13,NE,1698515762
429,nartkala,43.5575,43.8508,69.6,45,97,6.71,RU,1698515762
430,kardla,58.9978,22.7492,33.06,75,99,7.63,EE,1698515763
431,callao,-12.0667,-77.15,75.49,57,40,13.8,PE,1698515763
432,bethanie,-26.4833,17.15,68.99,12,1,15.21,NA,1698515763
433,baie-saint-paul,47.4411,-70.4986,64.38,65,85,11.16,CA,1698515763
434,mont-laurier,46.5501,-75.4993,46.02,63,99,11.83,CA,1698515763
435,harnosand,62.6323,17.9379,30.2,70,54,4.43,SE,1698515763
436,los andes,-32.8337,-70.5983,64.0,41,100,7.05,CL,1698515763
437,airuk,7.2772,168.8203,83.43,75,98,13.98,MH,1698515763
438,huangshan,29.7114,118.3125,62.58,89,45,1.59,CN,1698515764
439,tierp,60.3427,17.5181,33.62,81,97,3.44,SE,1698515764
440,daru,-9.0763,143.2092,77.31,91,99,15.68,PG,1698515764
441,kijang,35.2442,129.2139,51.53,73,21,7.96,KR,1698515764
442,springbok,-29.6643,17.8865,61.95,19,0,16.64,ZA,1698515764
443,dzialoszyn,51.117,18.8652,50.76,84,96,9.51,PL,1698515764
444,yuzhno-kurilsk,44.0306,145.8556,52.38,87,87,6.49,RU,1698515764
445,planeta rica,8.4147,-75.5883,77.22,89,100,4.12,CO,1698515765
446,mount gambier,-37.8333,140.7667,40.03,96,96,4.16,AU,1698515765
447,xilin hot,43.9667,116.0333,47.55,53,28,7.94,CN,1698515765
448,bokakhat,26.6333,93.6,68.52,93,0,0.74,IN,1698515765
449,qaisumah,28.3112,46.1273,76.96,29,0,4.61,SA,1698515765
450,strugi-krasnyye,58.2675,29.1114,30.47,81,100,4.59,RU,1698515765
451,vernon,50.2581,-119.2691,34.29,56,2,4.61,CA,1698515765
452,sodankyla,67.4167,26.6,15.78,98,97,2.28,FI,1698515765
453,mandalgovi,45.7625,106.2708,35.65,54,15,19.01,MN,1698515766
454,nanga eboko,4.6833,12.3667,76.68,70,49,2.44,CM,1698515766
455,mongo,12.1844,18.693,90.01,28,4,5.66,TD,1698515766
456,aras-asan,8.8908,126.3033,78.55,87,58,4.72,PH,1698515766
457,ryotsu-minato,38.0833,138.4333,56.03,70,42,10.49,JP,1698515766
458,safotu,-13.4513,-172.4018,81.16,87,89,17.09,WS,1698515766
459,knyaze-volkonskoye,48.4642,135.4567,35.01,44,17,3.0,RU,1698515766
460,kununurra,-15.7667,128.7333,62.58,67,68,2.3,AU,1698515610
461,kalmunai,7.4167,81.8167,79.68,80,97,1.41,LK,1698515767
462,usogorsk,63.4106,48.6872,25.66,83,100,9.69,RU,1698515767
463,ilave,-16.0833,-69.6667,65.14,22,61,6.8,PE,1698515767
464,ico,-6.4011,-38.8622,102.56,15,2,10.16,BR,1698515767
465,juan griego,11.0817,-63.9655,88.57,60,90,6.42,VE,1698515767
466,wanxian,30.8039,108.3897,62.33,85,27,0.81,CN,1698515767
467,grande prairie,55.1667,-118.8027,30.38,64,75,10.36,CA,1698515700
468,lepsy,46.235,78.9456,49.1,70,100,5.35,KZ,1698515767
469,buchanan,5.8808,-10.0467,79.84,84,86,6.71,LR,1698515767
470,ixtapa,20.7,-105.2,87.22,66,46,5.01,MX,1698515768
471,freeport,40.6576,-73.5832,83.3,58,0,12.66,US,1698515768
472,usehat,27.8167,79.25,73.42,42,92,2.66,IN,1698515768
473,fortuna,40.5982,-124.1573,51.98,92,0,5.75,US,1698515768
474,lerwick,60.1545,-1.1494,46.4,66,74,22.48,GB,1698515768
475,saint-denis,48.9167,2.3333,57.36,91,75,19.57,FR,1698515768
476,ostersund,63.1792,14.6357,28.62,74,100,8.05,SE,1698515549
477,miles city,46.4083,-105.8406,11.37,92,0,5.75,US,1698515768
478,harnai,30.1005,67.9374,70.77,35,24,2.3,PK,1698515768
479,lys'va,58.1086,57.8053,26.4,79,100,12.8,RU,1698515769
480,malango,-2.9627,119.9001,63.27,67,54,3.15,ID,1698515769
481,port macquarie,-31.4333,152.9167,49.89,83,71,4.23,AU,1698515769
482,souillac,-20.5167,57.5167,73.78,94,20,0.0,MU,1698515769
483,dhuri,30.3667,75.8667,73.11,33,86,4.76,IN,1698515769
484,gulf shores,30.246,-87.7008,83.34,65,40,10.36,US,1698515769
485,campina grande do sul,-25.3056,-49.0553,72.09,91,100,5.53,BR,1698515729
486,boa vista,2.8197,-60.6733,94.98,43,40,6.91,BR,1698515726
487,nadi,-17.8,177.4167,73.4,88,20,0.0,FJ,1698515770
488,baardheere,2.3446,42.2764,81.57,71,84,5.55,SO,1698515770
489,vyaz'ma,55.2104,34.2951,31.08,96,100,10.31,RU,1698515770
490,marksville,31.128,-92.0662,86.05,43,5,8.63,US,1698515770
491,louisville,38.2542,-85.7594,64.89,87,100,5.75,US,1698515426
492,tazacorte,28.629,-17.9293,74.37,87,75,4.0,ES,1698515770
493,island harbour,50.724,-1.2758,58.93,91,97,13.0,GB,1698515770
494,canchungo,12.0672,-16.0333,89.73,71,38,8.77,GW,1698515770
495,berbera,10.4396,45.0143,84.49,73,88,11.21,SO,1698515771
496,batabano,22.7164,-82.2881,86.72,49,30,13.56,CU,1698515771
497,lecheng,25.1238,113.3254,66.58,92,39,3.69,CN,1698515771
498,muynoq,43.7683,59.0214,62.15,52,85,1.86,UZ,1698515771
499,quepos,9.4236,-84.1652,83.88,73,97,6.17,CR,1698515771
500,selkirk,50.1436,-96.8845,27.09,76,51,8.01,CA,1698515484
501,rongelap,11.1635,166.8941,82.74,77,71,13.27,MH,1698515771
502,okha,53.5739,142.9478,33.44,97,97,9.17,RU,1698515771
503,trincomalee,8.5711,81.2335,81.93,77,100,6.06,LK,1698515487
504,ugoofaaru,5.6667,73.0,82.49,76,78,6.58,MV,1698515771
505,omdurman,15.6445,32.4777,92.62,29,81,10.38,SD,1698515772
506,val-d'or,48.1002,-77.7828,33.89,86,75,10.36,CA,1698515725
507,granby,45.4001,-72.7324,63.72,63,92,10.36,CA,1698515772
508,zahedan,29.4963,60.8629,62.51,51,0,0.0,IR,1698515642
509,fukayacho,36.2,139.2833,60.33,58,64,8.59,JP,1698515772
510,koh kong,11.6175,102.9806,79.02,87,93,4.32,KH,1698515772
511,faizpur,21.1667,75.85,73.45,40,23,4.27,IN,1698515772
512,columbia falls,48.3725,-114.1815,22.91,73,0,3.44,US,1698515772
513,broken hill,-31.95,141.4333,65.07,18,38,8.61,AU,1698515773
514,anadarko,35.0726,-98.2437,48.2,77,100,9.17,US,1698515773
515,san felipe,10.3399,-68.7425,85.93,69,88,1.79,VE,1698515773
516,quzhou,28.9594,118.8686,64.47,84,63,2.57,CN,1698515773
517,qusmuryn,52.4503,64.6311,33.73,98,100,10.83,KZ,1698515773
518,verdal,63.7933,11.4817,26.64,63,0,3.18,NO,1698515773
519,brasilia,-15.7797,-47.9297,83.32,48,75,2.3,BR,1698515545
520,general pico,-35.6566,-63.7568,87.85,24,67,18.88,AR,1698515774
521,shar,49.5886,81.0453,32.22,43,100,7.94,KZ,1698515774
522,jaffa,32.0504,34.7522,80.76,75,0,5.75,IL,1698515774
523,kuala terengganu,5.3302,103.1408,78.75,94,20,3.44,MY,1698515774
524,hirara,24.8,125.2833,71.46,78,20,6.91,JP,1698515774
525,howrah,22.5892,88.3103,77.0,78,20,0.0,IN,1698515774
526,talitsa,56.8804,60.0213,23.54,94,100,10.42,RU,1698515774
527,antonio enes,-16.2325,39.9086,78.84,83,0,12.66,MZ,1698515775
528,trairi,-3.2778,-39.2689,85.91,53,3,17.67,BR,1698515554
529,dolinsk,47.35,142.8,30.72,79,1,3.6,RU,1698515775
530,gummi,12.1436,5.1081,85.98,24,8,1.32,NG,1698515775
531,motueka,-41.1333,173.0167,44.1,80,14,5.1,NZ,1698515775
532,sarupathar,26.1984,93.8094,68.02,93,0,0.81,IN,1698515775
533,port augusta,-32.5,137.7667,56.8,80,84,6.6,AU,1698515775
534,ancud,-41.8697,-73.8203,47.7,75,86,27.38,CL,1698515775
535,chinde,26.8418,88.0763,57.72,77,55,4.0,NP,1698515776
536,conception bay south,47.4999,-52.9981,58.32,97,100,8.05,CA,1698515776
537,batesville,35.7698,-91.641,57.94,97,100,3.44,US,1698515776
538,atchison,39.563,-95.1216,40.82,37,13,10.74,US,1698515776
539,sydney mines,46.2367,-60.2177,71.6,75,75,13.8,CA,1698515776
540,tarko-sale,64.9225,77.785,15.64,93,96,11.25,RU,1698515776
541,foso,5.7012,-1.2866,76.66,90,44,4.36,GH,1698515776
542,melo,-32.3667,-54.1833,76.82,74,61,7.45,UY,1698515776
543,youssoufia,32.2463,-8.5294,69.46,56,97,10.65,MA,1698515776
544,chauk,20.8833,94.8167,77.85,75,34,2.91,MM,1698515777
545,fuling,29.7022,107.3919,60.73,88,67,1.63,CN,1698515562
546,alofi,-19.0595,-169.9187,73.29,73,68,8.05,NU,1698515777
547,chipata,-13.6333,32.65,79.59,36,42,8.14,ZM,1698515777
548,port hedland,-20.3167,118.5667,78.85,89,70,8.05,AU,1698515777
549,severoural'sk,60.1533,59.952,23.99,68,38,2.68,RU,1698515777
550,east end,34.5507,-92.341,72.68,94,100,7.07,US,1698515778
551,babolsar,36.7025,52.6576,66.52,60,12,6.11,IR,1698515778
552,makarov,48.6333,142.8,35.65,70,5,4.45,RU,1698515778
553,mhamid,29.82,-5.72,81.12,18,70,8.57,MA,1698515778
554,hollola,61.05,25.4333,30.06,73,99,4.5,FI,1698515778
555,nurota,40.5614,65.6886,69.94,34,100,4.88,UZ,1698515778
556,pandan,14.0453,124.1694,80.19,83,14,11.3,PH,1698515778
557,kidal,18.4411,1.4078,89.67,9,15,9.19,ML,1698515778
558,midvagur,62.0511,-7.1939,45.43,70,75,10.36,FO,1698515779
559,nabire,-3.3667,135.4833,75.94,91,100,2.26,ID,1698515779
560,canico,32.6333,-16.85,73.0,80,20,11.5,PT,1698515779
561,glendive,47.1053,-104.7125,20.17,79,0,12.66,US,1698515779
562,malinyi,-8.9333,36.1333,83.79,50,33,7.81,TZ,1698515779
563,kisii,-0.6817,34.7667,59.9,88,91,3.4,KE,1698515779
564,sparta,43.9441,-90.8129,37.0,71,100,0.0,US,1698515780
565,izberbash,42.5696,47.8645,60.85,65,93,8.41,RU,1698515534
566,forster,-32.1667,152.5167,47.28,100,76,4.94,AU,1698515780
567,dhalie,13.6957,44.7314,66.88,80,64,6.58,YE,1698515780
568,buala,-8.145,159.5921,79.18,83,87,4.97,SB,1698515780
569,cooma,-36.2333,149.1333,40.24,64,0,3.8,AU,1698515780
570,pyapon,16.2833,95.6833,76.53,91,55,3.62,MM,1698515781
571,ulsteinvik,62.3432,5.8487,40.75,73,0,7.0,NO,1698515781
572,fig tree,-33.0317,148.7511,47.35,83,2,4.27,AU,1698515781
573,kananga,-5.8958,22.4178,72.81,84,73,0.31,CD,1698515781
574,esperanza,19.5847,-70.9849,86.58,75,25,3.0,DO,1698515781
575,kuanda,56.3161,116.0806,25.92,82,100,9.69,RU,1698515781
576,villa ojo de agua,-29.5,-63.6938,86.04,40,0,11.83,AR,1698515781
577,bhisho,-32.8472,27.4422,50.63,93,100,13.04,ZA,1698515782
578,pisco,-13.7,-76.2167,71.65,73,40,11.5,PE,1698515782
579,vasil'yevo,55.836,48.6582,32.67,97,100,12.8,RU,1698515782
580,mata-utu,-13.2816,-176.1745,80.89,82,61,14.54,WF,1698515782
581,lodja,-3.4833,23.4333,72.46,90,84,0.43,CD,1698515782
582,ust-tsilma,65.441,52.1498,15.62,92,95,7.0,RU,1698515782
583,beboto,8.2668,16.939,79.95,59,30,5.7,TD,1698515782
584,strelka,58.0728,93.0344,23.77,75,100,6.82,RU,1698515782
585,ji'an,27.1172,114.9793,65.19,84,47,3.13,CN,1698515782
586,kailua-kona,19.6406,-155.9956,81.59,76,20,7.0,US,1698515705
587,aguas belas,-9.1114,-37.1231,94.98,24,84,17.72,BR,1698515783
588,kamaishi,39.2667,141.8833,55.92,93,77,9.51,JP,1698515783
589,potosi,-19.5836,-65.7531,62.37,9,49,20.62,BO,1698515783
590,okhotsk,59.3833,143.3,24.89,83,99,12.86,RU,1698515783
591,sedona,34.8697,-111.761,68.59,47,40,9.22,US,1698515326
592,teluk nibung,3.001,99.8164,76.48,91,99,2.93,ID,1698515783
593,sao vicente,-23.9631,-46.3919,89.78,62,100,9.22,BR,1698515783
594,caleta de carquin,-11.0925,-77.6267,71.44,75,100,12.53,PE,1698515784
595,broome,42.2506,-75.833,61.65,85,100,12.66,US,1698515784
596,boende,-0.2167,20.8667,75.02,81,92,1.23,CD,1698515784
